{"url":{"Localisation":"http://advanse.lirmm.fr/siprojuris/api/collective-actor/","Place":"http://advanse.lirmm.fr/siprojuris/api/named-place/"},"uri":"http://symogih.org/resource/","index":{"91":{"kind":"Localisation","id":"91","label":"Collège de France","localisation":null,"uri":"CoAc91"},"838":{"kind":"Place","id":"838","label":"Bruxelles","lat":50.8369,"lng":4.3675,"uri":"NaPl838"},"847":{"kind":"Place","id":"847","label":"Namur","lat":50.4653,"lng":4.8675,"uri":"NaPl847"},"1064":{"kind":"Place","id":"1064","label":"Ruse","lat":43.85639,"lng":25.97083,"uri":"NaPl1064"},"1424":{"kind":"Localisation","id":"1424","label":"Chausson Frères","localisation":null,"uri":"CoAc1424"},"1661":{"kind":"Place","id":"1661","label":"Agen","lat":44.2039,"lng":0.624404,"uri":"NaPl1661"},"1664":{"kind":"Place","id":"1664","label":"Aix-en-Provence","lat":43.5336,"lng":5.44222,"uri":"NaPl1664"},"1668":{"kind":"Place","id":"1668","label":"Albertville","lat":45.67452,"lng":6.39061,"uri":"NaPl1668"},"1669":{"kind":"Place","id":"1669","label":"Albi","lat":43.9298,"lng":2.148,"uri":"NaPl1669"},"1670":{"kind":"Place","id":"1670","label":"Alençon","lat":48.4375,"lng":0.077222,"uri":"NaPl1670"},"1671":{"kind":"Place","id":"1671","label":"Alès","lat":44.12489,"lng":4.08082,"uri":"NaPl1671"},"1681":{"kind":"Place","id":"1681","label":"Angoulême","lat":45.6496,"lng":0.147389,"uri":"NaPl1681"},"1682":{"kind":"Place","id":"1682","label":"Annecy","lat":45.8942,"lng":6.13473,"uri":"NaPl1682"},"1690":{"kind":"Place","id":"1690","label":"Arras","lat":50.2833,"lng":2.77667,"uri":"NaPl1690"},"1696":{"kind":"Place","id":"1696","label":"Auch","lat":43.6452,"lng":0.565405,"uri":"NaPl1696"},"1699":{"kind":"Place","id":"1699","label":"Auray","lat":47.67025,"lng":-2.99183,"uri":"NaPl1699"},"1701":{"kind":"Place","id":"1701","label":"Autun","lat":46.95,"lng":4.3,"uri":"NaPl1701"},"1702":{"kind":"Place","id":"1702","label":"Auxerre","lat":47.7938,"lng":3.58171,"uri":"NaPl1702"},"1707":{"kind":"Place","id":"1707","label":"Baccarat","lat":48.45086,"lng":6.73935,"uri":"NaPl1707"},"1708":{"kind":"Place","id":"1708","label":"Bagnères de Bigorre","lat":43.06667,"lng":0.15,"uri":"NaPl1708"},"1718":{"kind":"Place","id":"1718","label":"Baume-les-Dames","lat":47.35295,"lng":6.36117,"uri":"NaPl1718"},"1719":{"kind":"Place","id":"1719","label":"Bayonne","lat":43.4892,"lng":-1.46583,"uri":"NaPl1719"},"1724":{"kind":"Place","id":"1724","label":"Beaune","lat":47.03333,"lng":4.83333,"uri":"NaPl1724"},"1726":{"kind":"Place","id":"1726","label":"Beauvais","lat":49.43333,"lng":2.08333,"uri":"NaPl1726"},"1728":{"kind":"Place","id":"1728","label":"Belley","lat":45.76667,"lng":5.68333,"uri":"NaPl1728"},"1729":{"kind":"Place","id":"1729","label":"Bergerac","lat":44.85,"lng":0.48333,"uri":"NaPl1729"},"1732":{"kind":"Place","id":"1732","label":"Besançon","lat":47.2475,"lng":6.0175,"uri":"NaPl1732"},"1733":{"kind":"Place","id":"1733","label":"Béziers","lat":43.3547,"lng":3.25003,"uri":"NaPl1733"},"1737":{"kind":"Place","id":"1737","label":"Blois","lat":47.59432,"lng":1.32912,"uri":"NaPl1737"},"1742":{"kind":"Place","id":"1742","label":"Bordeaux","lat":44.8442,"lng":-0.583846,"uri":"NaPl1742"},"1745":{"kind":"Place","id":"1745","label":"Bourbonne-les-Bains","lat":47.95305,"lng":5.74801,"uri":"NaPl1745"},"1748":{"kind":"Place","id":"1748","label":"Bourges","lat":47.0845,"lng":2.40426,"uri":"NaPl1748"},"1754":{"kind":"Place","id":"1754","label":"Brest","lat":52.09755,"lng":23.68775,"uri":"NaPl1754"},"1762":{"kind":"Place","id":"1762","label":"Cadenet","lat":43.73445,"lng":5.37499,"uri":"NaPl1762"},"1763":{"kind":"Place","id":"1763","label":"Caen","lat":49.1883,"lng":-0.374377,"uri":"NaPl1763"},"1765":{"kind":"Place","id":"1765","label":"Cahors","lat":44.4355,"lng":1.43906,"uri":"NaPl1765"},"1766":{"kind":"Place","id":"1766","label":"Calais","lat":50.95194,"lng":1.85635,"uri":"NaPl1766"},"1768":{"kind":"Place","id":"1768","label":"Cambrai","lat":50.1711,"lng":3.23389,"uri":"NaPl1768"},"1770":{"kind":"Place","id":"1770","label":"Cannes","lat":43.55135,"lng":7.01275,"uri":"NaPl1770"},"1772":{"kind":"Place","id":"1772","label":"Carcassonne","lat":43.21351,"lng":2.35162,"uri":"NaPl1772"},"1777":{"kind":"Place","id":"1777","label":"Castelnaudary","lat":43.31829,"lng":1.95449,"uri":"NaPl1777"},"1779":{"kind":"Place","id":"1779","label":"Castres","lat":43.6,"lng":2.25,"uri":"NaPl1779"},"1785":{"kind":"Place","id":"1785","label":"Châlons-en-Champagne","lat":48.95393,"lng":4.36724,"uri":"NaPl1785"},"1786":{"kind":"Place","id":"1786","label":"Chalon-sur-Saône","lat":46.78333,"lng":4.85,"uri":"NaPl1786"},"1787":{"kind":"Place","id":"1787","label":"Chambéry","lat":45.5714,"lng":5.91028,"uri":"NaPl1787"},"1792":{"kind":"Place","id":"1792","label":"Chartres","lat":48.4433,"lng":1.47722,"uri":"NaPl1792"},"1793":{"kind":"Place","id":"1793","label":"Châteauroux","lat":46.81248,"lng":1.69362,"uri":"NaPl1793"},"1797":{"kind":"Place","id":"1797","label":"Châteaubriant","lat":47.71667,"lng":-1.38333,"uri":"NaPl1797"},"1806":{"kind":"Place","id":"1806","label":"Chatillon-sur-seine","lat":47.85851,"lng":4.57375,"uri":"NaPl1806"},"1813":{"kind":"Place","id":"1813","label":"Civray","lat":46.1471,"lng":0.29509,"uri":"NaPl1813"},"1820":{"kind":"Place","id":"1820","label":"Colmar","lat":48.07871,"lng":7.3554,"uri":"NaPl1820"},"1822":{"kind":"Place","id":"1822","label":"Compiègne","lat":49.41794,"lng":2.82606,"uri":"NaPl1822"},"1824":{"kind":"Place","id":"1824","label":"Condom","lat":43.9733,"lng":0.37542,"uri":"NaPl1824"},"1836":{"kind":"Place","id":"1836","label":"Crest","lat":44.72836,"lng":5.02722,"uri":"NaPl1836"},"1844":{"kind":"Place","id":"1844","label":"Dieuze","lat":48.81263,"lng":6.7178,"uri":"NaPl1844"},"1846":{"kind":"Place","id":"1846","label":"Dijon","lat":47.3161,"lng":5.0292,"uri":"NaPl1846"},"1849":{"kind":"Place","id":"1849","label":"Douai","lat":50.3681,"lng":3.07972,"uri":"NaPl1849"},"1851":{"kind":"Place","id":"1851","label":"Draguignan","lat":43.53333,"lng":6.46667,"uri":"NaPl1851"},"1859":{"kind":"Place","id":"1859","label":"Epernay","lat":49.05,"lng":3.95,"uri":"NaPl1859"},"1860":{"kind":"Place","id":"1860","label":"Épinal","lat":48.18324,"lng":6.45304,"uri":"NaPl1860"},"1871":{"kind":"Place","id":"1871","label":"Florac","lat":44.31667,"lng":3.6,"uri":"NaPl1871"},"1872":{"kind":"Place","id":"1872","label":"Foix","lat":42.96046,"lng":1.60787,"uri":"NaPl1872"},"1873":{"kind":"Place","id":"1873","label":"Fontenay-le-Comte","lat":46.46667,"lng":-0.81667,"uri":"NaPl1873"},"1877":{"kind":"Place","id":"1877","label":"Gap","lat":44.56151,"lng":6.08106,"uri":"NaPl1877"},"1885":{"kind":"Place","id":"1885","label":"Grasse","lat":43.66667,"lng":6.91667,"uri":"NaPl1885"},"1887":{"kind":"Place","id":"1887","label":"Gray","lat":47.44575,"lng":5.59215,"uri":"NaPl1887"},"1888":{"kind":"Place","id":"1888","label":"Grenoble","lat":45.1875,"lng":5.72402,"uri":"NaPl1888"},"1907":{"kind":"Place","id":"1907","label":"Jonzac","lat":45.45,"lng":-0.43333,"uri":"NaPl1907"},"1914":{"kind":"Place","id":"1914","label":"La Ciotat","lat":43.17476,"lng":5.60449,"uri":"NaPl1914"},"1926":{"kind":"Place","id":"1926","label":"La Roche-sur-Yon","lat":46.66667,"lng":-1.43333,"uri":"NaPl1926"},"1938":{"kind":"Place","id":"1938","label":"Laon","lat":49.5631,"lng":3.62714,"uri":"NaPl1938"},"1952":{"kind":"Place","id":"1952","label":"Le Mans","lat":47.9885,"lng":0.200615,"uri":"NaPl1952"},"1965":{"kind":"Place","id":"1965","label":"Lesparre-Medoc","lat":45.3,"lng":-0.93333,"uri":"NaPl1965"},"1970":{"kind":"Place","id":"1970","label":"Libourne","lat":44.91667,"lng":-0.23333,"uri":"NaPl1970"},"1971":{"kind":"Place","id":"1971","label":"Lille","lat":50.6254,"lng":3.04009,"uri":"NaPl1971"},"1972":{"kind":"Place","id":"1972","label":"Limoges","lat":45.8314,"lng":1.25194,"uri":"NaPl1972"},"1987":{"kind":"Place","id":"1987","label":"Loudun","lat":47.01,"lng":0.099237,"uri":"NaPl1987"},"1988":{"kind":"Place","id":"1988","label":"Louhans","lat":46.63333,"lng":5.21667,"uri":"NaPl1988"},"1992":{"kind":"Place","id":"1992","label":"Lunéville","lat":48.5875,"lng":6.49417,"uri":"NaPl1992"},"1994":{"kind":"Place","id":"1994","label":"Lusignan","lat":46.43598,"lng":0.1262,"uri":"NaPl1994"},"1998":{"kind":"Place","id":"1998","label":"Lyon","lat":45.7675,"lng":4.83351,"uri":"NaPl1998"},"2000":{"kind":"Place","id":"2000","label":"Mâcon","lat":46.31407,"lng":4.82823,"uri":"NaPl2000"},"2011":{"kind":"Place","id":"2011","label":"Marmande","lat":44.5,"lng":0.16667,"uri":"NaPl2011"},"2012":{"kind":"Place","id":"2012","label":"Marseille","lat":43.3065,"lng":5.44602,"uri":"NaPl2012"},"2019":{"kind":"Place","id":"2019","label":"Mayenne","lat":48.3,"lng":-0.61667,"uri":"NaPl2019"},"2023":{"kind":"Place","id":"2023","label":"Melle","lat":51.00232,"lng":3.80526,"uri":"NaPl2023"},"2032":{"kind":"Place","id":"2032","label":"Mirande","lat":43.51667,"lng":0.41667,"uri":"NaPl2032"},"2033":{"kind":"Place","id":"2033","label":"Mirebeau","lat":46.78743,"lng":0.18341,"uri":"NaPl2033"},"2037":{"kind":"Place","id":"2037","label":"Montauban","lat":44.01819,"lng":1.36432,"uri":"NaPl2037"},"2039":{"kind":"Place","id":"2039","label":"Montbéliard","lat":47.5169,"lng":6.82083,"uri":"NaPl2039"},"2049":{"kind":"Place","id":"2049","label":"Montpellier","lat":43.6152,"lng":3.87806,"uri":"NaPl2049"},"2058":{"kind":"Place","id":"2058","label":"Mulhouse","lat":47.75,"lng":7.33333,"uri":"NaPl2058"},"2062":{"kind":"Place","id":"2062","label":"Nancy","lat":48.6898,"lng":6.16824,"uri":"NaPl2062"},"2063":{"kind":"Place","id":"2063","label":"Nantes","lat":47.2192,"lng":-1.56139,"uri":"NaPl2063"},"2064":{"kind":"Place","id":"2064","label":"Narbonne","lat":43.18396,"lng":3.00141,"uri":"NaPl2064"},"2069":{"kind":"Place","id":"2069","label":"Nice","lat":43.7094,"lng":7.24343,"uri":"NaPl2069"},"2070":{"kind":"Place","id":"2070","label":"Nîmes","lat":43.8458,"lng":4.35667,"uri":"NaPl2070"},"2071":{"kind":"Place","id":"2071","label":"Niort","lat":46.32313,"lng":-0.45877,"uri":"NaPl2071"},"2077":{"kind":"Place","id":"2077","label":"Orléans","lat":47.9029,"lng":1.90389,"uri":"NaPl2077"},"2078":{"kind":"Place","id":"2078","label":"Ornans","lat":47.0991,"lng":6.14805,"uri":"NaPl2078"},"2085":{"kind":"Place","id":"2085","label":"Paris","lat":48.8533,"lng":2.34861,"uri":"NaPl2085"},"2086":{"kind":"Place","id":"2086","label":"Parthenay","lat":46.65,"lng":-0.25,"uri":"NaPl2086"},"2087":{"kind":"Place","id":"2087","label":"Pau","lat":42.31607,"lng":3.11621,"uri":"NaPl2087"},"2088":{"kind":"Place","id":"2088","label":"Périgueux","lat":45.18333,"lng":0.71667,"uri":"NaPl2088"},"2089":{"kind":"Place","id":"2089","label":"Pernes-les-Fontaines","lat":44.00028,"lng":5.05141,"uri":"NaPl2089"},"2090":{"kind":"Place","id":"2090","label":"Perpignan","lat":42.6992,"lng":2.88528,"uri":"NaPl2090"},"2094":{"kind":"Place","id":"2094","label":"Pont-Saint-Esprit","lat":44.25494,"lng":4.64736,"uri":"NaPl2094"},"2095":{"kind":"Place","id":"2095","label":"Poitiers","lat":46.5691,"lng":0.348203,"uri":"NaPl2095"},"2115":{"kind":"Place","id":"2115","label":"Quimper","lat":48,"lng":-4.1,"uri":"NaPl2115"},"2118":{"kind":"Place","id":"2118","label":"Redon","lat":47.65,"lng":-2.08333,"uri":"NaPl2118"},"2119":{"kind":"Place","id":"2119","label":"Reims","lat":49.2594,"lng":4.04139,"uri":"NaPl2119"},"2121":{"kind":"Place","id":"2121","label":"Rennes","lat":48.1189,"lng":-1.67694,"uri":"NaPl2121"},"2123":{"kind":"Place","id":"2123","label":"Revel","lat":45.18646,"lng":5.86852,"uri":"NaPl2123"},"2126":{"kind":"Place","id":"2126","label":"Ribérac","lat":45.25,"lng":0.33333,"uri":"NaPl2126"},"2140":{"kind":"Place","id":"2140","label":"Rouen","lat":49.4322,"lng":1.07667,"uri":"NaPl2140"},"2141":{"kind":"Place","id":"2141","label":"Royan","lat":45.62846,"lng":-1.0281,"uri":"NaPl2141"},"2148":{"kind":"Place","id":"2148","label":"Saint-Étienne","lat":45.4266,"lng":4.41787,"uri":"NaPl2148"},"2151":{"kind":"Place","id":"2151","label":"Saint-Jean-de-Maurienne","lat":45.28333,"lng":6.35,"uri":"NaPl2151"},"2169":{"kind":"Place","id":"2169","label":"Saint Flour","lat":45.03333,"lng":3.08333,"uri":"NaPl2169"},"2187":{"kind":"Place","id":"2187","label":"Saint-Sever","lat":43.75727,"lng":-0.57357,"uri":"NaPl2187"},"2192":{"kind":"Place","id":"2192","label":"Salins-les-bains","lat":46.94663,"lng":5.87763,"uri":"NaPl2192"},"2195":{"kind":"Place","id":"2195","label":"Sarlat-la-Caneda","lat":44.88902,"lng":1.21656,"uri":"NaPl2195"},"2196":{"kind":"Place","id":"2196","label":"Sarrebourg","lat":48.73333,"lng":7.05,"uri":"NaPl2196"},"2200":{"kind":"Place","id":"2200","label":"Saumur","lat":47.26667,"lng":-0.08333,"uri":"NaPl2200"},"2202":{"kind":"Place","id":"2202","label":"Sedan","lat":49.7017,"lng":4.93694,"uri":"NaPl2202"},"2205":{"kind":"Place","id":"2205","label":"Sens","lat":48.2,"lng":3.28333,"uri":"NaPl2205"},"2214":{"kind":"Place","id":"2214","label":"Saint-Dié-des-Vosges","lat":48.2814,"lng":6.95167,"uri":"NaPl2214"},"2215":{"kind":"Place","id":"2215","label":"Saint-Lô","lat":49.11624,"lng":-1.09031,"uri":"NaPl2215"},"2216":{"kind":"Place","id":"2216","label":"Saint-Quentin","lat":49.8508,"lng":3.27888,"uri":"NaPl2216"},"2217":{"kind":"Place","id":"2217","label":"Strasbourg","lat":48.5811,"lng":7.74546,"uri":"NaPl2217"},"2218":{"kind":"Place","id":"2218","label":"Surgères","lat":46.1082,"lng":-0.75148,"uri":"NaPl2218"},"2233":{"kind":"Place","id":"2233","label":"Toulon","lat":43.12442,"lng":5.92836,"uri":"NaPl2233"},"2234":{"kind":"Place","id":"2234","label":"Toulouse","lat":43.6093,"lng":1.41949,"uri":"NaPl2234"},"2235":{"kind":"Place","id":"2235","label":"Tournon-sur-Rhône","lat":45.06667,"lng":4.83333,"uri":"NaPl2235"},"2236":{"kind":"Place","id":"2236","label":"Tournus","lat":46.56758,"lng":4.90574,"uri":"NaPl2236"},"2237":{"kind":"Place","id":"2237","label":"Tours","lat":47.39484,"lng":0.70398,"uri":"NaPl2237"},"2239":{"kind":"Place","id":"2239","label":"Troyes","lat":48.2933,"lng":4.07083,"uri":"NaPl2239"},"2240":{"kind":"Place","id":"2240","label":"Tulle","lat":45.27001,"lng":1.77309,"uri":"NaPl2240"},"2244":{"kind":"Place","id":"2244","label":"Uzès","lat":44.01362,"lng":4.41529,"uri":"NaPl2244"},"2245":{"kind":"Place","id":"2245","label":"Valence","lat":44.9284,"lng":4.91396,"uri":"NaPl2245"},"2246":{"kind":"Place","id":"2246","label":"Valenciennes","lat":50.35,"lng":3.53333,"uri":"NaPl2246"},"2249":{"kind":"Place","id":"2249","label":"Vendôme","lat":47.8,"lng":1.06667,"uri":"NaPl2249"},"2250":{"kind":"Place","id":"2250","label":"Verdun","lat":49.1606,"lng":5.38833,"uri":"NaPl2250"},"2255":{"kind":"Place","id":"2255","label":"Vichy","lat":46.11667,"lng":3.41667,"uri":"NaPl2255"},"2265":{"kind":"Place","id":"2265","label":"Voiron","lat":45.36395,"lng":5.59209,"uri":"NaPl2265"},"2499":{"kind":"Place","id":"2499","label":"Koblenz","lat":50.3728,"lng":7.58472,"uri":"NaPl2499"},"3368":{"kind":"Place","id":"3368","label":"Carrara","lat":44.07926,"lng":10.09789,"uri":"NaPl3368"},"3596":{"kind":"Place","id":"3596","label":"Naples","lat":40.8333,"lng":14.25,"uri":"NaPl3596"},"3697":{"kind":"Place","id":"3697","label":"Roma","lat":41.8953,"lng":12.4903,"uri":"NaPl3697"},"3794":{"kind":"Place","id":"3794","label":"Torino","lat":45.0747,"lng":7.66639,"uri":"NaPl3794"},"4255":{"kind":"Place","id":"4255","label":"La Haye","lat":48.79561,"lng":-1.39655,"uri":"NaPl4255"},"9267":{"kind":"Localisation","id":"9267","label":"Ecole centrale des arts et manufactures (Paris)","localisation":null,"uri":"CoAc9267"},"9296":{"kind":"Localisation","id":"9296","label":"ENS (École Normale Supérieure)","localisation":null,"uri":"CoAc9296"},"10144":{"kind":"Localisation","id":"10144","label":"Sciences politiques (École libre des)","localisation":null,"uri":"CoAc10144"},"10734":{"kind":"Place","id":"10734","label":"BERN","lat":46.94809,"lng":7.44744,"uri":"NaPl10734"},"10754":{"kind":"Place","id":"10754","label":"Lausanne","lat":46.5247,"lng":6.62306,"uri":"NaPl10754"},"11397":{"kind":"Place","id":"11397","label":"Odessa","lat":46.47747,"lng":30.73262,"uri":"NaPl11397"},"12246":{"kind":"Place","id":"12246","label":"Versailles","lat":48.80359,"lng":2.13424,"uri":"NaPl12246"},"12248":{"kind":"Place","id":"12248","label":"Montargis","lat":48,"lng":2.75,"uri":"NaPl12248"},"12291":{"kind":"Place","id":"12291","label":"Mens","lat":44.8144,"lng":5.75946,"uri":"NaPl12291"},"12294":{"kind":"Place","id":"12294","label":"Nevers","lat":46.98956,"lng":3.159,"uri":"NaPl12294"},"12313":{"kind":"Place","id":"12313","label":"Vizille","lat":45.07819,"lng":5.77074,"uri":"NaPl12313"},"12372":{"kind":"Place","id":"12372","label":"Oullins","lat":45.71774,"lng":4.80382,"uri":"NaPl12372"},"12392":{"kind":"Place","id":"12392","label":"Saverne","lat":48.74164,"lng":7.36221,"uri":"NaPl12392"},"12421":{"kind":"Place","id":"12421","label":"Genève","lat":46.2022,"lng":6.14556,"uri":"NaPl12421"},"12439":{"kind":"Localisation","id":"12439","label":"Université de Caen","localisation":null,"uri":"CoAc12439"},"12491":{"kind":"Localisation","id":"12491","label":"Collège Louis-le-Grand (Paris)","localisation":null,"uri":"CoAc12491"},"12528":{"kind":"Localisation","id":"12528","label":"Université de Toulouse","localisation":null,"uri":"CoAc12528"},"12531":{"kind":"Localisation","id":"12531","label":"Faculté de droit de Toulouse","localisation":null,"uri":"CoAc12531"},"12706":{"kind":"Place","id":"12706","label":"Molsheim","lat":48.54042,"lng":7.49199,"uri":"NaPl12706"},"12825":{"kind":"Localisation","id":"12825","label":"Université d'Aix-en-Provence","localisation":null,"uri":"CoAc12825"},"12829":{"kind":"Localisation","id":"12829","label":"Université de Strasbourg","localisation":null,"uri":"CoAc12829"},"13127":{"kind":"Localisation","id":"13127","label":"Université de Bologne","localisation":null,"uri":"CoAc13127"},"13319":{"kind":"Localisation","id":"13319","label":"Faculté de droit de Paris","localisation":2085,"uri":"CoAc13319"},"13366":{"kind":"Localisation","id":"13366","label":"Faculté de droit de Caen","localisation":1763,"uri":"CoAc13366"},"13367":{"kind":"Localisation","id":"13367","label":"Faculté de droit de Poitiers","localisation":2095,"uri":"CoAc13367"},"13561":{"kind":"Localisation","id":"13561","label":"Faculté de droit de Strasbourg","localisation":2217,"uri":"CoAc13561"},"13562":{"kind":"Localisation","id":"13562","label":"Faculté de droit d'Aix-en-Provence","localisation":1664,"uri":"CoAc13562"},"13627":{"kind":"Localisation","id":"13627","label":"Faculté de droit de Dijon","localisation":1846,"uri":"CoAc13627"},"13628":{"kind":"Localisation","id":"13628","label":"Faculté de droit de Rennes","localisation":2121,"uri":"CoAc13628"},"13669":{"kind":"Localisation","id":"13669","label":"Faculté de médecine de Paris","localisation":2085,"uri":"CoAc13669"},"13771":{"kind":"Localisation","id":"13771","label":"Ecole nationale des Chartes","localisation":null,"uri":"CoAc13771"},"13957":{"kind":"Localisation","id":"13957","label":"Faculté des lettres de Paris","localisation":null,"uri":"CoAc13957"},"13964":{"kind":"Localisation","id":"13964","label":"Université de Nancy","localisation":2062,"uri":"CoAc13964"},"14237":{"kind":"Localisation","id":"14237","label":"Faculté de droit de Lille","localisation":1971,"uri":"CoAc14237"},"14238":{"kind":"Localisation","id":"14238","label":"Faculté de droit de Nancy","localisation":2062,"uri":"CoAc14238"},"14239":{"kind":"Localisation","id":"14239","label":"Faculté de droit de Grenoble","localisation":1888,"uri":"CoAc14239"},"14240":{"kind":"Localisation","id":"14240","label":"Faculté de droit de Lyon","localisation":1998,"uri":"CoAc14240"},"14241":{"kind":"Localisation","id":"14241","label":"Faculté de droit de Bordeaux","localisation":1742,"uri":"CoAc14241"},"14246":{"kind":"Localisation","id":"14246","label":"Académie de Lausanne","localisation":10754,"uri":"CoAc14246"},"14248":{"kind":"Localisation","id":"14248","label":"Faculté de droit d'Alger","localisation":89787,"uri":"CoAc14248"},"14254":{"kind":"Localisation","id":"14254","label":"Faculté de droit de Montpellier","localisation":2049,"uri":"CoAc14254"},"14511":{"kind":"Localisation","id":"14511","label":"Université Paris 2 (Panthéon-Assas)","localisation":2085,"uri":"CoAc14511"},"14726":{"kind":"Localisation","id":"14726","label":"Université Paris 1 (Panthéon-Sorbonne)","localisation":2085,"uri":"CoAc14726"},"14807":{"kind":"Localisation","id":"14807","label":"École supérieure de droit de Hanoï","localisation":89896,"uri":"CoAc14807"},"14808":{"kind":"Localisation","id":"14808","label":"École Khédiviale de droit du Caire","localisation":89800,"uri":"CoAc14808"},"14809":{"kind":"Localisation","id":"14809","label":"École française de droit du Caire","localisation":89800,"uri":"CoAc14809"},"14810":{"kind":"Localisation","id":"14810","label":"École française de droit de Beyrouth","localisation":89934,"uri":"CoAc14810"},"14811":{"kind":"Localisation","id":"14811","label":"École pratique des hautes études (EPHE)","localisation":null,"uri":"CoAc14811"},"14842":{"kind":"Localisation","id":"14842","label":"Faculté des sciences de Marseille","localisation":2012,"uri":"CoAc14842"},"14843":{"kind":"Localisation","id":"14843","label":"Faculté de droit de Coblenz","localisation":2499,"uri":"CoAc14843"},"14844":{"kind":"Localisation","id":"14844","label":"Faculté des lettres de Poitiers","localisation":2095,"uri":"CoAc14844"},"14845":{"kind":"Localisation","id":"14845","label":"Université de Besançon (Ancien Régime)","localisation":1732,"uri":"CoAc14845"},"14854":{"kind":"Localisation","id":"14854","label":"Université de Rennes (Ancien Régime)","localisation":2121,"uri":"CoAc14854"},"14855":{"kind":"Localisation","id":"14855","label":"Université de Poitiers (Ancien Régime)","localisation":2095,"uri":"CoAc14855"},"14856":{"kind":"Localisation","id":"14856","label":"Université de Paris (Ancien Régime)","localisation":2085,"uri":"CoAc14856"},"14857":{"kind":"Localisation","id":"14857","label":"Faculté de théologie de Strasbourg","localisation":2217,"uri":"CoAc14857"},"14859":{"kind":"Localisation","id":"14859","label":"Académie de législation de Paris","localisation":2085,"uri":"CoAc14859"},"14860":{"kind":"Localisation","id":"14860","label":"Université de législation (Paris)","localisation":2085,"uri":"CoAc14860"},"14861":{"kind":"Localisation","id":"14861","label":"Faculté de droit d'Abidjan","localisation":122143,"uri":"CoAc14861"},"14862":{"kind":"Localisation","id":"14862","label":"Faculté de Droit et des Sciences Economiques de Dakar","localisation":89874,"uri":"CoAc14862"},"15343":{"kind":"Localisation","id":"15343","label":"Faculté de pharmacie de Montpellier","localisation":2049,"uri":"CoAc15343"},"15344":{"kind":"Localisation","id":"15344","label":"Université de Valence","localisation":2245,"uri":"CoAc15344"},"15345":{"kind":"Localisation","id":"15345","label":"Faculté des lettres de Strasbourg","localisation":2217,"uri":"CoAc15345"},"15359":{"kind":"Localisation","id":"15359","label":"Académie protestante de Strasbourg","localisation":2217,"uri":"CoAc15359"},"15363":{"kind":"Localisation","id":"15363","label":"Faculté des lettres de Grenoble","localisation":null,"uri":"CoAc15363"},"15378":{"kind":"Localisation","id":"15378","label":"Faculté des sciences de Lille","localisation":1971,"uri":"CoAc15378"},"15380":{"kind":"Localisation","id":"15380","label":"Faculté des lettres de Dijon","localisation":null,"uri":"CoAc15380"},"15381":{"kind":"Localisation","id":"15381","label":"Faculté des lettres de Lille (faculté de lettres de Douai, 1808-1887)","localisation":null,"uri":"CoAc15381"},"15382":{"kind":"Localisation","id":"15382","label":"Faculté des lettres de Lyon","localisation":null,"uri":"CoAc15382"},"15383":{"kind":"Localisation","id":"15383","label":"Faculté des lettres de Montpellier","localisation":null,"uri":"CoAc15383"},"15389":{"kind":"Localisation","id":"15389","label":"Kaiser-Wilhelms-Universität (Strasbourg)","localisation":null,"uri":"CoAc15389"},"15396":{"kind":"Localisation","id":"15396","label":"Fondation Thiers","localisation":null,"uri":"CoAc15396"},"15398":{"kind":"Localisation","id":"15398","label":"Faculté de droit de Nice","localisation":2069,"uri":"CoAc15398"},"15401":{"kind":"Localisation","id":"15401","label":"Institut des Hautes Etudes Françaises (Egypte)","localisation":null,"uri":"CoAc15401"},"15403":{"kind":"Localisation","id":"15403","label":"Faculté des lettres de Caen","localisation":null,"uri":"CoAc15403"},"15407":{"kind":"Localisation","id":"15407","label":"Ecole des hautes études sociales","localisation":null,"uri":"CoAc15407"},"15573":{"kind":"Localisation","id":"15573","label":"Faculté des Lettres de Nancy","localisation":null,"uri":"CoAc15573"},"15599":{"kind":"Localisation","id":"15599","label":"Faculté de droit de Turin","localisation":null,"uri":"CoAc15599"},"15602":{"kind":"Localisation","id":"15602","label":"Faculté des lettres de Strasbourg","localisation":null,"uri":"CoAc15602"},"15615":{"kind":"Localisation","id":"15615","label":"Ecole préparatoire de l'enseignement du droit de Fort de France","localisation":null,"uri":"CoAc15615"},"49926":{"kind":"Place","id":"49926","label":"Bucy-lès-Pierrepont","lat":49.64667,"lng":3.90214,"uri":"NaPl49926"},"49961":{"kind":"Place","id":"49961","label":"Château-Thierry","lat":49.05,"lng":3.4,"uri":"NaPl49961"},"50093":{"kind":"Place","id":"50093","label":"Fère, La","lat":49.66286,"lng":3.36631,"uri":"NaPl50093"},"50585":{"kind":"Place","id":"50585","label":"Villers-Cotterêts","lat":49.25311,"lng":3.09003,"uri":"NaPl50585"},"50630":{"kind":"Place","id":"50630","label":"Bellenaves","lat":46.19979,"lng":3.08215,"uri":"NaPl50630"},"50651":{"kind":"Place","id":"50651","label":"Broût-Vernet","lat":46.18756,"lng":3.27324,"uri":"NaPl50651"},"50701":{"kind":"Place","id":"50701","label":"Cusset","lat":46.13002,"lng":3.45963,"uri":"NaPl50701"},"50947":{"kind":"Place","id":"50947","label":"Le Caire","lat":30.06263,"lng":31.24967,"uri":"NaPl50947"},"51040":{"kind":"Place","id":"51040","label":"Quinson","lat":47.28583,"lng":-76.80028,"uri":"NaPl51040"},"51110":{"kind":"Place","id":"51110","label":"Volonne","lat":44.11039,"lng":6.01424,"uri":"NaPl51110"},"51430":{"kind":"Place","id":"51430","label":"Vence","lat":43.72254,"lng":7.11183,"uri":"NaPl51430"},"51690":{"kind":"Place","id":"51690","label":"Saint-Martin-de-Valamas","lat":44.93648,"lng":4.36557,"uri":"NaPl51690"},"51913":{"kind":"Place","id":"51913","label":"Faissault","lat":49.60598,"lng":4.51092,"uri":"NaPl51913"},"52057":{"kind":"Place","id":"52057","label":"Neuvizy","lat":49.62856,"lng":4.53306,"uri":"NaPl52057"},"52097":{"kind":"Place","id":"52097","label":"Rocroi","lat":49.9261,"lng":4.5222,"uri":"NaPl52097"},"52486":{"kind":"Place","id":"52486","label":"Saint-Martin-d'Oydes","lat":43.17,"lng":1.49596,"uri":"NaPl52486"},"52493":{"kind":"Place","id":"52493","label":"Saint-Ybars","lat":43.23804,"lng":1.38624,"uri":"NaPl52493"},"52892":{"kind":"Place","id":"52892","label":"Saint-Lyé","lat":48.36502,"lng":3.999,"uri":"NaPl52892"},"53530":{"kind":"Place","id":"53530","label":"Lapanouse","lat":43.99578,"lng":3.09806,"uri":"NaPl53530"},"53654":{"kind":"Place","id":"53654","label":"Salles-Curan","lat":44.1822,"lng":2.78821,"uri":"NaPl53654"},"53663":{"kind":"Place","id":"53663","label":"Sauveterre-de-Rouergue","lat":44.22022,"lng":2.31806,"uri":"NaPl53663"},"53671":{"kind":"Place","id":"53671","label":"Sévérac-le-Château","lat":44.32429,"lng":3.05929,"uri":"NaPl53671"},"53678":{"kind":"Place","id":"53678","label":"Taussac","lat":44.82902,"lng":2.64189,"uri":"NaPl53678"},"53709":{"kind":"Place","id":"53709","label":"Aubagne","lat":43.29276,"lng":5.57067,"uri":"NaPl53709"},"53743":{"kind":"Place","id":"53743","label":"Gardanne","lat":43.45491,"lng":5.46913,"uri":"NaPl53743"},"53833":{"kind":"Place","id":"53833","label":"Argences","lat":49.12635,"lng":-0.16644,"uri":"NaPl53833"},"53839":{"kind":"Place","id":"53839","label":"Audrieu","lat":49.20846,"lng":-0.59429,"uri":"NaPl53839"},"53976":{"kind":"Place","id":"53976","label":"Condé-sur-Seulles","lat":49.22556,"lng":-0.63386,"uri":"NaPl53976"},"54055":{"kind":"Place","id":"54055","label":"Falaise","lat":48.89217,"lng":-0.19527,"uri":"NaPl54055"},"54066":{"kind":"Place","id":"54066","label":"Folie, La","lat":50.00896,"lng":2.01217,"uri":"NaPl54066"},"54169":{"kind":"Place","id":"54169","label":"Luc-sur-Mer","lat":49.31452,"lng":-0.35499,"uri":"NaPl54169"},"54234":{"kind":"Place","id":"54234","label":"Mouen","lat":49.14696,"lng":-0.48366,"uri":"NaPl54234"},"54286":{"kind":"Place","id":"54286","label":"Pont-l'Évêque","lat":45.53217,"lng":4.90922,"uri":"NaPl54286"},"54443":{"kind":"Place","id":"54443","label":"Thaon","lat":49.25796,"lng":-0.45605,"uri":"NaPl54443"},"54479":{"kind":"Place","id":"54479","label":"Vacognes-Neuilly","lat":49.0743,"lng":-0.5239,"uri":"NaPl54479"},"54494":{"kind":"Place","id":"54494","label":"Verson","lat":49.15432,"lng":-0.45628,"uri":"NaPl54494"},"54510":{"kind":"Place","id":"54510","label":"Villers-sur-Mer","lat":49.32264,"lng":0.00027,"uri":"NaPl54510"},"54514":{"kind":"Place","id":"54514","label":"Villons-les-Buissons","lat":49.24047,"lng":-0.4096,"uri":"NaPl54514"},"54796":{"kind":"Place","id":"54796","label":"Aussac-Vadalle","lat":45.82179,"lng":0.21591,"uri":"NaPl54796"},"54850":{"kind":"Place","id":"54850","label":"Chapelle, La","lat":50.68333,"lng":2.9,"uri":"NaPl54850"},"54940":{"kind":"Place","id":"54940","label":"Ladiville","lat":45.51209,"lng":-0.06969,"uri":"NaPl54940"},"55130":{"kind":"Place","id":"55130","label":"Touvérac","lat":45.38333,"lng":-0.2,"uri":"NaPl55130"},"55324":{"kind":"Place","id":"55324","label":"Flotte, La","lat":46.18649,"lng":-1.32666,"uri":"NaPl55324"},"55498":{"kind":"Place","id":"55498","label":"Saint-Jean-d'Angély","lat":45.95,"lng":-0.51667,"uri":"NaPl55498"},"55545":{"kind":"Place","id":"55545","label":"Saint-Sauveur-d'Aunis","lat":46.2157,"lng":-0.88753,"uri":"NaPl55545"},"55733":{"kind":"Place","id":"55733","label":"Henrichemont","lat":47.30333,"lng":2.52458,"uri":"NaPl55733"},"55739":{"kind":"Place","id":"55739","label":"Ivoy-le-Pré","lat":47.34477,"lng":2.48609,"uri":"NaPl55739"},"55783":{"kind":"Place","id":"55783","label":"Nérondes","lat":46.99758,"lng":2.81834,"uri":"NaPl55783"},"55861":{"kind":"Place","id":"55861","label":"Sancerre","lat":47.32889,"lng":2.83447,"uri":"NaPl55861"},"56230":{"kind":"Place","id":"56230","label":"Bard-le-Régulier","lat":47.14678,"lng":4.3156,"uri":"NaPl56230"},"56473":{"kind":"Place","id":"56473","label":"Gevrey-Chambertin","lat":47.22614,"lng":4.96806,"uri":"NaPl56473"},"56593":{"kind":"Place","id":"56593","label":"Mirebeau-sur-Bèze","lat":47.39828,"lng":5.32093,"uri":"NaPl56593"},"56761":{"kind":"Place","id":"56761","label":"Savigny-lès-Beaune","lat":47.06357,"lng":4.81821,"uri":"NaPl56761"},"56882":{"kind":"Place","id":"56882","label":"Vosne-Romanée","lat":47.16024,"lng":4.95484,"uri":"NaPl56882"},"56892":{"kind":"Place","id":"56892","label":"Binic","lat":48.60074,"lng":-2.82602,"uri":"NaPl56892"},"56951":{"kind":"Place","id":"56951","label":"Guingamp","lat":48.55,"lng":-3.15,"uri":"NaPl56951"},"57036":{"kind":"Place","id":"57036","label":"Paimpol","lat":48.77841,"lng":-3.04375,"uri":"NaPl57036"},"57538":{"kind":"Place","id":"57538","label":"Belvès","lat":44.77632,"lng":1.00588,"uri":"NaPl57538"},"57654":{"kind":"Place","id":"57654","label":"Dussac","lat":45.39518,"lng":1.08226,"uri":"NaPl57654"},"57772":{"kind":"Place","id":"57772","label":"Montagnac-la-Crempse","lat":44.98115,"lng":0.54584,"uri":"NaPl57772"},"58015":{"kind":"Place","id":"58015","label":"Terrasson-Lavilledieu","lat":45.13011,"lng":1.30136,"uri":"NaPl58015"},"58112":{"kind":"Place","id":"58112","label":"Bolandoz","lat":47.01796,"lng":6.11252,"uri":"NaPl58112"},"58167":{"kind":"Place","id":"58167","label":"Chasnans","lat":47.08559,"lng":6.31283,"uri":"NaPl58167"},"58192":{"kind":"Place","id":"58192","label":"Clerval","lat":47.39167,"lng":6.49925,"uri":"NaPl58192"},"58193":{"kind":"Place","id":"58193","label":"Cluse-et-Mijoux, La","lat":46.88333,"lng":6.38333,"uri":"NaPl58193"},"58333":{"kind":"Place","id":"58333","label":"Huanne-Montmartin","lat":47.43149,"lng":6.34164,"uri":"NaPl58333"},"58357":{"kind":"Place","id":"58357","label":"Levier","lat":46.95302,"lng":6.12059,"uri":"NaPl58357"},"58688":{"kind":"Place","id":"58688","label":"Bourg-de-Péage","lat":45.02825,"lng":5.07162,"uri":"NaPl58688"},"58768":{"kind":"Place","id":"58768","label":"Grane","lat":44.73333,"lng":4.91667,"uri":"NaPl58768"},"58851":{"kind":"Place","id":"58851","label":"Pierrelatte","lat":44.37756,"lng":4.70198,"uri":"NaPl58851"},"59354":{"kind":"Place","id":"59354","label":"Mainneville","lat":49.37326,"lng":1.68082,"uri":"NaPl59354"},"59551":{"kind":"Place","id":"59551","label":"Saint-Philbert-sur-Risle","lat":49.29611,"lng":0.64926,"uri":"NaPl59551"},"60103":{"kind":"Place","id":"60103","label":"Coray","lat":48.05934,"lng":-3.83056,"uri":"NaPl60103"},"60699":{"kind":"Place","id":"60699","label":"Alzon","lat":43.96695,"lng":3.43916,"uri":"NaPl60699"},"61186":{"kind":"Place","id":"61186","label":"Cugnaux","lat":43.53635,"lng":1.34428,"uri":"NaPl61186"},"61298":{"kind":"Place","id":"61298","label":"Lanta","lat":43.56667,"lng":1.66667,"uri":"NaPl61298"},"61426":{"kind":"Place","id":"61426","label":"Nogaret","lat":44.45,"lng":0.3,"uri":"NaPl61426"},"61570":{"kind":"Place","id":"61570","label":"Seysses","lat":43.49801,"lng":1.31081,"uri":"NaPl61570"},"61606":{"kind":"Place","id":"61606","label":"Villemur-sur-Tarn","lat":43.86708,"lng":1.50281,"uri":"NaPl61606"},"61610":{"kind":"Place","id":"61610","label":"Villeneuve-Tolosane","lat":43.52316,"lng":1.34102,"uri":"NaPl61610"},"61691":{"kind":"Place","id":"61691","label":"Castelnau-d'Auzan","lat":43.94831,"lng":0.08561,"uri":"NaPl61691"},"61892":{"kind":"Place","id":"61892","label":"Montestruc-sur-Gers","lat":43.79284,"lng":0.62883,"uri":"NaPl61892"},"61902":{"kind":"Place","id":"61902","label":"Nogaro","lat":43.75856,"lng":-0.03293,"uri":"NaPl61902"},"62178":{"kind":"Place","id":"62178","label":"Caumont","lat":49.36642,"lng":0.89591,"uri":"NaPl62178"},"62314":{"kind":"Place","id":"62314","label":"Loupiac","lat":44.61667,"lng":-0.3,"uri":"NaPl62314"},"62567":{"kind":"Place","id":"62567","label":"Talence","lat":44.80477,"lng":-0.59543,"uri":"NaPl62567"},"62957":{"kind":"Place","id":"62957","label":"Bouëxière, La","lat":48.18404,"lng":-1.43843,"uri":"NaPl62957"},"63017":{"kind":"Place","id":"63017","label":"Dol-de-Bretagne","lat":48.54765,"lng":-1.75018,"uri":"NaPl63017"},"63043":{"kind":"Place","id":"63043","label":"Gouesnière, La","lat":48.60445,"lng":-1.89516,"uri":"NaPl63043"},"63046":{"kind":"Place","id":"63046","label":"Guerche-de-Bretagne, La","lat":47.94166,"lng":-1.2309,"uri":"NaPl63046"},"63193":{"kind":"Place","id":"63193","label":"Saint-Grégoire","lat":48.15085,"lng":-1.68706,"uri":"NaPl63193"},"63228":{"kind":"Place","id":"63228","label":"Saint-Sulpice-la-Forêt","lat":48.21667,"lng":-1.57972,"uri":"NaPl63228"},"63250":{"kind":"Place","id":"63250","label":"Tinténiac","lat":48.3286,"lng":-1.8363,"uri":"NaPl63250"},"63578":{"kind":"Place","id":"63578","label":"Chinon","lat":47.16667,"lng":0.25,"uri":"NaPl63578"},"63786":{"kind":"Place","id":"63786","label":"Allevard","lat":45.39449,"lng":6.07519,"uri":"NaPl63786"},"63892":{"kind":"Place","id":"63892","label":"Corbelin","lat":45.60868,"lng":5.54448,"uri":"NaPl63892"},"63896":{"kind":"Place","id":"63896","label":"Corps","lat":-20.25694,"lng":57.44556,"uri":"NaPl63896"},"64137":{"kind":"Place","id":"64137","label":"Saint-Jean-de-Bournay","lat":45.50135,"lng":5.13963,"uri":"NaPl64137"},"64142":{"kind":"Place","id":"64142","label":"Saint-Jean-le-Vieux","lat":46.02849,"lng":5.38982,"uri":"NaPl64142"},"64157":{"kind":"Place","id":"64157","label":"Saint-Martin-d'Hères","lat":45.1787,"lng":5.76281,"uri":"NaPl64157"},"64213":{"kind":"Place","id":"64213","label":"Sérézin-de-la-Tour","lat":45.557,"lng":5.3417,"uri":"NaPl64213"},"64286":{"kind":"Place","id":"64286","label":"Voreppe","lat":45.29476,"lng":5.63324,"uri":"NaPl64286"},"64603":{"kind":"Place","id":"64603","label":"Molunes, Les","lat":46.37056,"lng":5.91306,"uri":"NaPl64603"},"64626":{"kind":"Place","id":"64626","label":"Morbier","lat":46.53693,"lng":6.01532,"uri":"NaPl64626"},"64709":{"kind":"Place","id":"64709","label":"Rix","lat":56.946,"lng":24.10589,"uri":"NaPl64709"},"64725":{"kind":"Place","id":"64725","label":"Saint-Claude","lat":46.38679,"lng":5.86473,"uri":"NaPl64725"},"65296":{"kind":"Place","id":"65296","label":"Oucques","lat":47.82252,"lng":1.29383,"uri":"NaPl65296"},"65415":{"kind":"Place","id":"65415","label":"Vineuil","lat":47.5838,"lng":1.37601,"uri":"NaPl65415"},"65624":{"kind":"Place","id":"65624","label":"Saint-Genest-Malifaux","lat":45.34234,"lng":4.41954,"uri":"NaPl65624"},"65885":{"kind":"Place","id":"65885","label":"Puy-en-Velay, Le","lat":45.04366,"lng":3.88523,"uri":"NaPl65885"},"66079":{"kind":"Place","id":"66079","label":"Moisdon-la-Rivière","lat":47.62175,"lng":-1.37258,"uri":"NaPl66079"},"66734":{"kind":"Place","id":"66734","label":"Payrignac","lat":44.75615,"lng":1.35136,"uri":"NaPl66734"},"66850":{"kind":"Place","id":"66850","label":"Vigan, Le","lat":43.99106,"lng":3.60648,"uri":"NaPl66850"},"67019":{"kind":"Place","id":"67019","label":"Moncaut","lat":44.14218,"lng":0.49889,"uri":"NaPl67019"},"67049":{"kind":"Place","id":"67049","label":"Penne-d'Agenais","lat":44.38856,"lng":0.81875,"uri":"NaPl67049"},"67064":{"kind":"Place","id":"67064","label":"Puysserampion","lat":44.60218,"lng":0.3105,"uri":"NaPl67064"},"67079":{"kind":"Place","id":"67079","label":"Sainte-Bazeille","lat":44.53073,"lng":0.0974,"uri":"NaPl67079"},"67521":{"kind":"Place","id":"67521","label":"Martigné-Briand","lat":47.23358,"lng":-0.42933,"uri":"NaPl67521"},"67720":{"kind":"Place","id":"67720","label":"Avranches","lat":48.6833,"lng":-1.36667,"uri":"NaPl67720"},"67772":{"kind":"Place","id":"67772","label":"Bricquebec","lat":49.47008,"lng":-1.63254,"uri":"NaPl67772"},"67900":{"kind":"Place","id":"67900","label":"Granville","lat":-33.83333,"lng":151.01667,"uri":"NaPl67900"},"68092":{"kind":"Place","id":"68092","label":"Reffuveille","lat":48.6688,"lng":-1.11376,"uri":"NaPl68092"},"68195":{"kind":"Place","id":"68195","label":"Saint-Pierre-Église","lat":49.66848,"lng":-1.40358,"uri":"NaPl68195"},"68265":{"kind":"Place","id":"68265","label":"Valognes","lat":49.50881,"lng":-1.47047,"uri":"NaPl68265"},"68620":{"kind":"Place","id":"68620","label":"Mareuil-le-Port","lat":49.08179,"lng":3.76011,"uri":"NaPl68620"},"68811":{"kind":"Place","id":"68811","label":"Souain-Perthes-lès-Hurlus","lat":49.18363,"lng":4.54341,"uri":"NaPl68811"},"68983":{"kind":"Place","id":"68983","label":"Chalancey","lat":47.69315,"lng":5.1693,"uri":"NaPl68983"},"69215":{"kind":"Place","id":"69215","label":"Perthes","lat":48.47821,"lng":2.55509,"uri":"NaPl69215"},"69917":{"kind":"Place","id":"69917","label":"Longuyon","lat":49.44548,"lng":5.60145,"uri":"NaPl69917"},"70021":{"kind":"Place","id":"70021","label":"Pont-à-Mousson","lat":48.9265,"lng":6.05492,"uri":"NaPl70021"},"70022":{"kind":"Place","id":"70022","label":"Pont-Saint-Vincent","lat":48.60298,"lng":6.09942,"uri":"NaPl70022"},"70213":{"kind":"Place","id":"70213","label":"Bar-le-Duc","lat":48.77275,"lng":5.16108,"uri":"NaPl70213"},"70314":{"kind":"Place","id":"70314","label":"Damvillers","lat":49.3073,"lng":5.42654,"uri":"NaPl70314"},"70329":{"kind":"Place","id":"70329","label":"Douaumont","lat":49.22123,"lng":5.51241,"uri":"NaPl70329"},"70337":{"kind":"Place","id":"70337","label":"Éparges, Les","lat":49.06476,"lng":5.59393,"uri":"NaPl70337"},"70497":{"kind":"Place","id":"70497","label":"Mouzay","lat":49.46433,"lng":5.21748,"uri":"NaPl70497"},"70645":{"kind":"Place","id":"70645","label":"Vaucouleurs","lat":48.60313,"lng":5.66659,"uri":"NaPl70645"},"70697":{"kind":"Place","id":"70697","label":"Baud","lat":47.87474,"lng":-3.0176,"uri":"NaPl70697"},"70855":{"kind":"Place","id":"70855","label":"Pontivy","lat":48.06667,"lng":-2.98333,"uri":"NaPl70855"},"71329":{"kind":"Place","id":"71329","label":"Longeville-lès-Metz","lat":49.11277,"lng":6.1353,"uri":"NaPl71329"},"71449":{"kind":"Place","id":"71449","label":"Phalsbourg","lat":48.7609,"lng":7.26031,"uri":"NaPl71449"},"71752":{"kind":"Place","id":"71752","label":"Decize","lat":46.82852,"lng":3.46192,"uri":"NaPl71752"},"71766":{"kind":"Place","id":"71766","label":"Entrains-sur-Nohain","lat":47.4644,"lng":3.25666,"uri":"NaPl71766"},"72185":{"kind":"Place","id":"72185","label":"Feignies","lat":50.29806,"lng":3.91534,"uri":"NaPl72185"},"72821":{"kind":"Place","id":"72821","label":"Ermenonville","lat":49.12648,"lng":2.69772,"uri":"NaPl72821"},"73025":{"kind":"Place","id":"73025","label":"Mont-l'Évêque","lat":49.2,"lng":2.63333,"uri":"NaPl73025"},"73074":{"kind":"Place","id":"73074","label":"Noyon","lat":49.5816,"lng":3.00345,"uri":"NaPl73074"},"73337":{"kind":"Place","id":"73337","label":"Bellême","lat":48.37329,"lng":0.57005,"uri":"NaPl73337"},"73362":{"kind":"Place","id":"73362","label":"Briouze","lat":48.69848,"lng":-0.36806,"uri":"NaPl73362"},"73372":{"kind":"Place","id":"73372","label":"Carneille, La","lat":48.78333,"lng":-0.45,"uri":"NaPl73372"},"73510":{"kind":"Place","id":"73510","label":"Aigle, L'","lat":48.76216,"lng":0.62746,"uri":"NaPl73510"},"73517":{"kind":"Place","id":"73517","label":"Landigou","lat":48.74578,"lng":-0.47098,"uri":"NaPl73517"},"73588":{"kind":"Place","id":"73588","label":"Mortagne-au-Perche","lat":48.51667,"lng":0.55,"uri":"NaPl73588"},"73921":{"kind":"Place","id":"73921","label":"Béthune","lat":50.53333,"lng":2.63333,"uri":"NaPl73921"},"74376":{"kind":"Place","id":"74376","label":"Montreuil","lat":50.46667,"lng":1.76667,"uri":"NaPl74376"},"74397":{"kind":"Place","id":"74397","label":"Neuville-Saint-Vaast","lat":50.35756,"lng":2.76261,"uri":"NaPl74397"},"74399":{"kind":"Place","id":"74399","label":"Neuville-Vitasse","lat":50.24788,"lng":2.82048,"uri":"NaPl74399"},"74703":{"kind":"Place","id":"74703","label":"Arlanc","lat":45.41389,"lng":3.72528,"uri":"NaPl74703"},"74797":{"kind":"Place","id":"74797","label":"Chauriat","lat":45.75152,"lng":3.27946,"uri":"NaPl74797"},"74992":{"kind":"Place","id":"74992","label":"Royat","lat":45.76379,"lng":3.04955,"uri":"NaPl74992"},"75092":{"kind":"Place","id":"75092","label":"Sauvetat, La","lat":44.22613,"lng":0.79804,"uri":"NaPl75092"},"75116":{"kind":"Place","id":"75116","label":"Usson","lat":45.39174,"lng":3.94142,"uri":"NaPl75116"},"75273":{"kind":"Place","id":"75273","label":"Bilhères","lat":43.05868,"lng":-0.44874,"uri":"NaPl75273"},"76393":{"kind":"Place","id":"76393","label":"Barr","lat":48.40755,"lng":7.44873,"uri":"NaPl76393"},"76399":{"kind":"Place","id":"76399","label":"Benfeld","lat":48.37062,"lng":7.5937,"uri":"NaPl76399"},"76416":{"kind":"Place","id":"76416","label":"Bischwiller","lat":48.76588,"lng":7.85831,"uri":"NaPl76416"},"76431":{"kind":"Place","id":"76431","label":"Bouxwiller","lat":48.82495,"lng":7.48117,"uri":"NaPl76431"},"76565":{"kind":"Place","id":"76565","label":"Hochfelden","lat":47.52262,"lng":8.51564,"uri":"NaPl76565"},"76779":{"kind":"Place","id":"76779","label":"Sarre-Union","lat":48.93818,"lng":7.09373,"uri":"NaPl76779"},"76884":{"kind":"Place","id":"76884","label":"Wissembourg","lat":49.03708,"lng":7.94548,"uri":"NaPl76884"},"76945":{"kind":"Place","id":"76945","label":"Bouxwiller","lat":48.82495,"lng":7.48117,"uri":"NaPl76945"},"77044":{"kind":"Place","id":"77044","label":"Husseren-Wesserling","lat":47.88297,"lng":6.99388,"uri":"NaPl77044"},"77117":{"kind":"Place","id":"77117","label":"Munster","lat":47.42164,"lng":11.83356,"uri":"NaPl77117"},"77219":{"kind":"Place","id":"77219","label":"Stosswihr","lat":48.05108,"lng":7.11001,"uri":"NaPl77219"},"77393":{"kind":"Place","id":"77393","label":"Nuelles","lat":45.85242,"lng":4.61182,"uri":"NaPl77393"},"77508":{"kind":"Place","id":"77508","label":"Meyzieu","lat":45.76667,"lng":5,"uri":"NaPl77508"},"77623":{"kind":"Place","id":"77623","label":"Bucey-lès-Gy","lat":47.42293,"lng":5.84281,"uri":"NaPl77623"},"77936":{"kind":"Place","id":"77936","label":"Rochelle, La","lat":46.16308,"lng":-1.15222,"uri":"NaPl77936"},"77973":{"kind":"Place","id":"77973","label":"Servance","lat":47.81444,"lng":6.68334,"uri":"NaPl77973"},"78070":{"kind":"Place","id":"78070","label":"Anost","lat":47.07726,"lng":4.0994,"uri":"NaPl78070"},"78145":{"kind":"Place","id":"78145","label":"Chapelle-de-Guinchay, La","lat":46.20841,"lng":4.76245,"uri":"NaPl78145"},"78161":{"kind":"Place","id":"78161","label":"Charolles","lat":46.43333,"lng":4.28333,"uri":"NaPl78161"},"78182":{"kind":"Place","id":"78182","label":"Chissey-en-Morvan","lat":47.11702,"lng":4.22512,"uri":"NaPl78182"},"78271":{"kind":"Place","id":"78271","label":"Gourdon","lat":44.73333,"lng":1.38333,"uri":"NaPl78271"},"78652":{"kind":"Place","id":"78652","label":"Bessé-sur-Braye","lat":47.83333,"lng":0.75,"uri":"NaPl78652"},"78780":{"kind":"Place","id":"78780","label":"Loué","lat":47.99575,"lng":-0.1545,"uri":"NaPl78780"},"79058":{"kind":"Place","id":"79058","label":"Châtelard, Le","lat":45.68611,"lng":6.1366,"uri":"NaPl79058"},"79140":{"kind":"Place","id":"79140","label":"Montmélian","lat":45.49994,"lng":6.05047,"uri":"NaPl79140"},"79291":{"kind":"Place","id":"79291","label":"Allinges","lat":46.33658,"lng":6.46363,"uri":"NaPl79291"},"79510":{"kind":"Place","id":"79510","label":"Saint-Julien-en-Genevois","lat":46.14434,"lng":6.08256,"uri":"NaPl79510"},"79544":{"kind":"Place","id":"79544","label":"Thusy","lat":45.94597,"lng":5.9535,"uri":"NaPl79544"},"79560":{"kind":"Place","id":"79560","label":"Veyrier-du-Lac","lat":45.8799,"lng":6.17751,"uri":"NaPl79560"},"79823":{"kind":"Place","id":"79823","label":"Eu","lat":50.04606,"lng":1.42079,"uri":"NaPl79823"},"79918":{"kind":"Place","id":"79918","label":"Le Havre","lat":49.4938,"lng":0.10767,"uri":"NaPl79918"},"79940":{"kind":"Place","id":"79940","label":"Imbleville","lat":49.71528,"lng":0.9525,"uri":"NaPl79940"},"79967":{"kind":"Place","id":"79967","label":"Luneray","lat":49.82795,"lng":0.91581,"uri":"NaPl79967"},"80338":{"kind":"Place","id":"80338","label":"Barbizon","lat":48.44346,"lng":2.60313,"uri":"NaPl80338"},"80420":{"kind":"Place","id":"80420","label":"Chelles","lat":48.88109,"lng":2.59295,"uri":"NaPl80420"},"80496":{"kind":"Place","id":"80496","label":"Fontainebleau","lat":48.3932,"lng":2.69545,"uri":"NaPl80496"},"80560":{"kind":"Place","id":"80560","label":"Limoges-Fourches","lat":48.62801,"lng":2.66553,"uri":"NaPl80560"},"80707":{"kind":"Place","id":"80707","label":"Saint-Fargeau-Ponthierry","lat":48.55713,"lng":2.5284,"uri":"NaPl80707"},"80917":{"kind":"Place","id":"80917","label":"Fontenay-le-Fleury","lat":48.81253,"lng":2.04863,"uri":"NaPl80917"},"81042":{"kind":"Place","id":"81042","label":"Saint-Germain-en-Laye","lat":48.9,"lng":2.08333,"uri":"NaPl81042"},"81089":{"kind":"Place","id":"81089","label":"Absie, L'","lat":46.63236,"lng":-0.57709,"uri":"NaPl81089"},"81247":{"kind":"Place","id":"81247","label":"Mothe-Saint-Héray, La","lat":46.3609,"lng":-0.11319,"uri":"NaPl81247"},"81339":{"kind":"Place","id":"81339","label":"Saivres","lat":46.43262,"lng":-0.23677,"uri":"NaPl81339"},"81383":{"kind":"Place","id":"81383","label":"Vitré","lat":48.11776,"lng":-1.20577,"uri":"NaPl81383"},"81609":{"kind":"Place","id":"81609","label":"Curlu","lat":49.96508,"lng":2.81706,"uri":"NaPl81609"},"81909":{"kind":"Place","id":"81909","label":"Monchy-Lagache","lat":49.85151,"lng":3.04501,"uri":"NaPl81909"},"82015":{"kind":"Place","id":"82015","label":"Revelles","lat":49.84939,"lng":2.12168,"uri":"NaPl82015"},"82232":{"kind":"Place","id":"82232","label":"Cordes-sur-Ciel","lat":44.06667,"lng":1.95,"uri":"NaPl82232"},"82492":{"kind":"Place","id":"82492","label":"Bardigues","lat":44.04182,"lng":0.88989,"uri":"NaPl82492"},"82786":{"kind":"Place","id":"82786","label":"Seillans","lat":43.635,"lng":6.64666,"uri":"NaPl82786"},"82797":{"kind":"Place","id":"82797","label":"Tavernes","lat":46.55483,"lng":6.81062,"uri":"NaPl82797"},"82806":{"kind":"Place","id":"82806","label":"Varages","lat":46.52421,"lng":-74.57406,"uri":"NaPl82806"},"82841":{"kind":"Place","id":"82841","label":"Carpentras","lat":44.05,"lng":5.05,"uri":"NaPl82841"},"83078":{"kind":"Place","id":"83078","label":"Marsais-Sainte-Radégonde","lat":46.53773,"lng":-0.87965,"uri":"NaPl83078"},"83211":{"kind":"Place","id":"83211","label":"Thiré","lat":42.01028,"lng":20.23278,"uri":"NaPl83211"},"83279":{"kind":"Place","id":"83279","label":"Champagné-Saint-Hilaire","lat":46.31937,"lng":0.32458,"uri":"NaPl83279"},"83284":{"kind":"Place","id":"83284","label":"Chapelle-Moulière, La","lat":46.65049,"lng":0.56493,"uri":"NaPl83284"},"83288":{"kind":"Place","id":"83288","label":"Chasseneuil-du-Poitou","lat":46.65112,"lng":0.37329,"uri":"NaPl83288"},"83390":{"kind":"Place","id":"83390","label":"Neuville-de-Poitou","lat":46.68333,"lng":0.25,"uri":"NaPl83390"},"83482":{"kind":"Place","id":"83482","label":"Verrue","lat":46.77327,"lng":-56.22568,"uri":"NaPl83482"},"83718":{"kind":"Place","id":"83718","label":"Bains-les-Bains","lat":48.00113,"lng":6.26492,"uri":"NaPl83718"},"83836":{"kind":"Place","id":"83836","label":"Dompaire","lat":48.22447,"lng":6.21938,"uri":"NaPl83836"},"83879":{"kind":"Place","id":"83879","label":"Gérardmer","lat":48.07346,"lng":6.87787,"uri":"NaPl83879"},"84001":{"kind":"Place","id":"84001","label":"Neufchâteau","lat":49.84074,"lng":5.43535,"uri":"NaPl84001"},"84264":{"kind":"Place","id":"84264","label":"Chamoux","lat":45.53401,"lng":6.21385,"uri":"NaPl84264"},"84456":{"kind":"Place","id":"84456","label":"Noyers","lat":49.24555,"lng":1.67914,"uri":"NaPl84456"},"84610":{"kind":"Place","id":"84610","label":"Villeblevin","lat":48.32446,"lng":3.08038,"uri":"NaPl84610"},"84815":{"kind":"Place","id":"84815","label":"Étampes","lat":48.43333,"lng":2.15,"uri":"NaPl84815"},"84818":{"kind":"Place","id":"84818","label":"Évry","lat":48.6328,"lng":2.44049,"uri":"NaPl84818"},"84876":{"kind":"Place","id":"84876","label":"Orsay","lat":48.69572,"lng":2.18727,"uri":"NaPl84876"},"84925":{"kind":"Place","id":"84925","label":"Verrières-le-Buisson","lat":48.74565,"lng":2.26796,"uri":"NaPl84925"},"84960":{"kind":"Place","id":"84960","label":"Issy-les-Moulineaux","lat":48.8167,"lng":2.26667,"uri":"NaPl84960"},"84967":{"kind":"Place","id":"84967","label":"Neuilly-sur-Seine","lat":48.8846,"lng":2.26965,"uri":"NaPl84967"},"85007":{"kind":"Place","id":"85007","label":"Raincy, Le","lat":48.897,"lng":2.51974,"uri":"NaPl85007"},"85026":{"kind":"Place","id":"85026","label":"Charenton-le-Pont","lat":48.82209,"lng":2.41217,"uri":"NaPl85026"},"85051":{"kind":"Place","id":"85051","label":"Saint-Mandé","lat":48.83864,"lng":2.41579,"uri":"NaPl85051"},"85204":{"kind":"Place","id":"85204","label":"Pontoise","lat":49.0515,"lng":2.0933,"uri":"NaPl85204"},"85295":{"kind":"Place","id":"85295","label":"Macouba","lat":14.8764,"lng":-61.14196,"uri":"NaPl85295"},"85305":{"kind":"Place","id":"85305","label":"Saint-Pierre","lat":45.71153,"lng":7.22683,"uri":"NaPl85305"},"89787":{"kind":"Place","id":"89787","label":"Alger","lat":36.7631,"lng":3.05056,"uri":"NaPl89787"},"89800":{"kind":"Place","id":"89800","label":"Le Caire","lat":30.05,"lng":31.25,"uri":"NaPl89800"},"89874":{"kind":"Place","id":"89874","label":"Dakar","lat":14.695,"lng":-17.4439,"uri":"NaPl89874"},"89896":{"kind":"Place","id":"89896","label":"Hanoï","lat":21.0333,"lng":105.85,"uri":"NaPl89896"},"89914":{"kind":"Place","id":"89914","label":"Grandbourg","lat":48.77888,"lng":2.31781,"uri":"NaPl89914"},"89934":{"kind":"Place","id":"89934","label":"Beyrouth","lat":33.8833,"lng":35.5,"uri":"NaPl89934"},"89972":{"kind":"Place","id":"89972","label":"Cherbourg","lat":49.63984,"lng":-1.61636,"uri":"NaPl89972"},"90318":{"kind":"Place","id":"90318","label":"La Guillotière","lat":45.75616,"lng":4.84785,"uri":"NaPl90318"},"121333":{"kind":"Place","id":"121333","label":"Auschwitz (complexe concentrationnaire)","lat":50.03437,"lng":19.21037,"uri":"NaPl121333"},"122143":{"kind":"Place","id":"122143","label":"Abidjan","lat":13.5272,"lng":2.12802,"uri":"NaPl122143"},"122144":{"kind":"Place","id":"122144","label":"Monaco","lat":43.73333,"lng":7.41667,"uri":"NaPl122144"},"122145":{"kind":"Place","id":"122145","label":"Zonnebeke","lat":50.8726,"lng":2.98725,"uri":"NaPl122145"},"122146":{"kind":"Place","id":"122146","label":"Prilly","lat":46.53698,"lng":6.60456,"uri":"NaPl122146"},"122147":{"kind":"Place","id":"122147","label":"Mahelma","lat":36.68237,"lng":2.87743,"uri":"NaPl122147"},"122148":{"kind":"Place","id":"122148","label":"Lo-Reninge","lat":50.94781,"lng":2.78892,"uri":"NaPl122148"},"122149":{"kind":"Place","id":"122149","label":"Dora","lat":33.72872,"lng":-87.09028,"uri":"NaPl122149"},"122151":{"kind":"Place","id":"122151","label":"Bouzareah","lat":36.76667,"lng":3.03333,"uri":"NaPl122151"},"122419":{"kind":"Place","id":"122419","label":"Frisange","lat":49.51616,"lng":6.18858,"uri":"NaPl122419"},"122420":{"kind":"Place","id":"122420","label":"Rochefort sur Mer","lat":45.94304,"lng":-0.96774,"uri":"NaPl122420"},"122421":{"kind":"Place","id":"122421","label":"Dissais","lat":46.53333,"lng":-1.23333,"uri":"NaPl122421"},"122475":{"kind":"Place","id":"122475","label":"Paris 1er arrondissement","lat":48.8592,"lng":2.3417,"uri":"NaPl122475"},"122479":{"kind":"Place","id":"122479","label":"Paris 5ème arrondissement","lat":48.8448,"lng":2.3471,"uri":"NaPl122479"},"122480":{"kind":"Place","id":"122480","label":"Paris 6ème arrondissement","lat":48.8493,"lng":2.33,"uri":"NaPl122480"},"122496":{"kind":"Place","id":"122496","label":"Lang Son","lat":21.83333,"lng":106.58333,"uri":"NaPl122496"},"122497":{"kind":"Place","id":"122497","label":"Pregny-Chambésy","lat":46.23789,"lng":6.14239,"uri":"NaPl122497"}}}